{
"type": "FeatureCollection",
"crs": { "type": "name", "properties": { "name": "urn:ogc:def:crs:OGC:1.3:CRS84" } },
"features": [
{ "type": "Feature", "properties": { "route_name": "17_Ave", "stop_name": "6th Street SE", "connection": "1, 302" }, "geometry": { "type": "Point", "coordinates": [ -114.048394105743739, 51.044054354609102 ] } },
{ "type": "Feature", "properties": { "route_name": "17_Ave", "stop_name": "12th Street SE", "connection": "1, 302, 411" }, "geometry": { "type": "Point", "coordinates": [ -114.034357131807454, 51.041254623565727 ] } },
{ "type": "Feature", "properties": { "route_name": "17_Ave", "stop_name": "8th Street SE", "connection": "1,302, 411" }, "geometry": { "type": "Point", "coordinates": [ -114.041491520395283, 51.043332846275895 ] } },
{ "type": "Feature", "properties": { "route_name": "17_Ave", "stop_name": "9th Avenue SE", "connection": "1" }, "geometry": { "type": "Point", "coordinates": [ -114.021520669709318, 51.037158182633043 ] } },
{ "type": "Feature", "properties": { "route_name": "17_Ave", "stop_name": "26th Street SE", "connection": "1" }, "geometry": { "type": "Point", "coordinates": [ -113.995455683244103, 51.037608062068372 ] } },
{ "type": "Feature", "properties": { "route_name": "17_Ave", "stop_name": "33rd Street SE", "connection": "1, 155, 440" }, "geometry": { "type": "Point", "coordinates": [ -113.986641436613354, 51.037888784622844 ] } },
{ "type": "Feature", "properties": { "route_name": "17_Ave", "stop_name": "36th Street SE", "connection": "1, 43, 87, 135, 155, 440" }, "geometry": { "type": "Point", "coordinates": [ -113.981613309558085, 51.037879787131452 ] } },
{ "type": "Feature", "properties": { "route_name": "17_Ave", "stop_name": "44th Street SE", "connection": "1, 58, 87, 440" }, "geometry": { "type": "Point", "coordinates": [ -113.970017424055527, 51.037829401147377 ] } },
{ "type": "Feature", "properties": { "route_name": "17_Ave", "stop_name": "52nd Street SE", "connection": "1, 23, 87, 440" }, "geometry": { "type": "Point", "coordinates": [ -113.95841581501621, 51.037858193144992 ] } },
{ "type": "Feature", "properties": { "route_name": "17_Ave", "stop_name": "61st Street SE", "connection": "87, 440" }, "geometry": { "type": "Point", "coordinates": [ -113.942756218404682, 51.037919376080495 ] } },
{ "type": "Feature", "properties": { "route_name": "17_Ave", "stop_name": "70th Street SE", "connection": "68, 440" }, "geometry": { "type": "Point", "coordinates": [ -113.930238843481646, 51.037890584120909 ] } },
{ "type": "Feature", "properties": { "route_name": "17_Ave", "stop_name": "84th Street SE", "connection": "68, 440" }, "geometry": { "type": "Point", "coordinates": [ -113.907985732507356, 51.037879787131459 ] } },
{ "type": "Feature", "properties": { "route_name": "17_Ave", "stop_name": "East Hills", "connection": "68, 440" }, "geometry": { "type": "Point", "coordinates": [ -113.911156571879744, 51.040974821093172 ] } },
{ "type": "Feature", "properties": { "route_name": "north_cross", "stop_name": "31st Street NW", "connection": "8, 9, 20, 38, 53, 65, 82, 408" }, "geometry": { "type": "Point", "coordinates": [ -114.12999027686709, 51.08183865928001 ] } },
{ "type": "Feature", "properties": { "route_name": "north_cross", "stop_name": "Brentwood", "connection": "8, 9, 38, 53, 65, 82, 408" }, "geometry": { "type": "Point", "coordinates": [ -114.131547078869389, 51.086807485873685 ] } },
{ "type": "Feature", "properties": { "route_name": "north_cross", "stop_name": "Alberta Children's Hospital", "connection": "8, 31, 90" }, "geometry": { "type": "Point", "coordinates": [ -114.145661320552151, 51.075452466021204 ] } },
{ "type": "Feature", "properties": { "route_name": "north_cross", "stop_name": "Foothils Medical Centre", "connection": "8, 9, 40, 90, 91, 104" }, "geometry": { "type": "Point", "coordinates": [ -114.130196324190905, 51.068403616905904 ] } },
{ "type": "Feature", "properties": { "route_name": "north_cross", "stop_name": "North Hill & 19th Street NW", "connection": "19, 31, 40, 91, 105" }, "geometry": { "type": "Point", "coordinates": [ -114.104984144704858, 51.066876824207789 ] } },
{ "type": "Feature", "properties": { "route_name": "north_cross", "stop_name": "SAIT", "connection": "19" }, "geometry": { "type": "Point", "coordinates": [ -114.089204353821103, 51.066812082768315 ] } },
{ "type": "Feature", "properties": { "route_name": "north_cross", "stop_name": "4th Street NW", "connection": "2, 19" }, "geometry": { "type": "Point", "coordinates": [ -114.071530072265404, 51.066833663258201 ] } },
{ "type": "Feature", "properties": { "route_name": "north_cross", "stop_name": "Centre Street N", "connection": "3, 19, 62, 64, 109, 116, 142, 300, 301" }, "geometry": { "type": "Point", "coordinates": [ -114.062521225384387, 51.066866033974172 ] } },
{ "type": "Feature", "properties": { "route_name": "north_cross", "stop_name": "Edmonton Trail", "connection": "4, 5, 19" }, "geometry": { "type": "Point", "coordinates": [ -114.056173823102895, 51.066844453499378 ] } },
{ "type": "Feature", "properties": { "route_name": "north_cross", "stop_name": "Russet Road", "connection": "19" }, "geometry": { "type": "Point", "coordinates": [ -114.042591870340033, 51.066909194893576 ] } },
{ "type": "Feature", "properties": { "route_name": "north_cross", "stop_name": "19th Street NE", "connection": "19, 33" }, "geometry": { "type": "Point", "coordinates": [ -114.013433312248836, 51.066896606296233 ] } },
{ "type": "Feature", "properties": { "route_name": "north_cross", "stop_name": "Rundle", "connection": "19, 32, 33, 34, 43, 48" }, "geometry": { "type": "Point", "coordinates": [ -113.98052583757125, 51.074702677745385 ] } },
{ "type": "Feature", "properties": { "route_name": "north_cross", "stop_name": "Rundleside Drive", "connection": null }, "geometry": { "type": "Point", "coordinates": [ -113.969911538625354, 51.081560000884124 ] } },
{ "type": "Feature", "properties": { "route_name": "north_cross", "stop_name": "32nd Avenue NE", "connection": "23" }, "geometry": { "type": "Point", "coordinates": [ -113.958357148764406, 51.081571686592511 ] } },
{ "type": "Feature", "properties": { "route_name": "north_cross", "stop_name": "Whitehorn Drive", "connection": "23, 57" }, "geometry": { "type": "Point", "coordinates": [ -113.958302775165137, 51.085902386633393 ] } },
{ "type": "Feature", "properties": { "route_name": "north_cross", "stop_name": "44th Avenue NE", "connection": "23, 38, 43" }, "geometry": { "type": "Point", "coordinates": [ -113.958302775165137, 51.091438764175123 ] } },
{ "type": "Feature", "properties": { "route_name": "north_cross", "stop_name": "Castleridge Boulevard", "connection": "21, 55, 23, 43" }, "geometry": { "type": "Point", "coordinates": [ -113.95825698687095, 51.099921797046193 ] } },
{ "type": "Feature", "properties": { "route_name": "north_cross", "stop_name": "Falshire Drive", "connection": "21, 55, 23" }, "geometry": { "type": "Point", "coordinates": [ -113.949717470005297, 51.106635229816725 ] } },
{ "type": "Feature", "properties": { "route_name": "north_cross", "stop_name": "Martindale Boulevard", "connection": "23, 60, 61, 68" }, "geometry": { "type": "Point", "coordinates": [ -113.946672548441938, 51.114181286701445 ] } },
{ "type": "Feature", "properties": { "route_name": "north_cross", "stop_name": "Saddletowne Circle", "connection": "23, 68" }, "geometry": { "type": "Point", "coordinates": [ -113.946237559647173, 51.121395602105849 ] } },
{ "type": "Feature", "properties": { "route_name": "south_cross", "stop_name": "Westbrook", "connection": "6, 9, 93, 94, 111" }, "geometry": { "type": "Point", "coordinates": [ -114.135418690375914, 51.04046335687859 ] } },
{ "type": "Feature", "properties": { "route_name": "south_cross", "stop_name": "26th Avenue SW", "connection": "6, 9, 94" }, "geometry": { "type": "Point", "coordinates": [ -114.141144693044595, 51.030063789362174 ] } },
{ "type": "Feature", "properties": { "route_name": "south_cross", "stop_name": "Richmond Road", "connection": "9" }, "geometry": { "type": "Point", "coordinates": [ -114.141055340597234, 51.022537748266288 ] } },
{ "type": "Feature", "properties": { "route_name": "south_cross", "stop_name": "Sarcee Road", "connection": "9, 13, 112" }, "geometry": { "type": "Point", "coordinates": [ -114.140215799893866, 51.012526501293628 ] } },
{ "type": "Feature", "properties": { "route_name": "south_cross", "stop_name": "Mount Royal University West", "connection": null }, "geometry": { "type": "Point", "coordinates": [ -114.134229185920361, 51.015053816127505 ] } },
{ "type": "Feature", "properties": { "route_name": "south_cross", "stop_name": "Mount Royal University", "connection": "9, 13, 18, 20" }, "geometry": { "type": "Point", "coordinates": [ -114.126868778068598, 51.010945981171986 ] } },
{ "type": "Feature", "properties": { "route_name": "south_cross", "stop_name": "54th Avenue SW", "connection": null }, "geometry": { "type": "Point", "coordinates": [ -114.117829288810043, 51.005021625808318 ] } },
{ "type": "Feature", "properties": { "route_name": "south_cross", "stop_name": "Rockyview Hospital", "connection": null }, "geometry": { "type": "Point", "coordinates": [ -114.094724235128496, 50.988179112607142 ] } },
{ "type": "Feature", "properties": { "route_name": "south_cross", "stop_name": "Heritage Park", "connection": "20, 79, 80, 502" }, "geometry": { "type": "Point", "coordinates": [ -114.094707481544631, 50.979571559587164 ] } },
{ "type": "Feature", "properties": { "route_name": "south_cross", "stop_name": "Elbow Drive", "connection": "3, 20, 37, 79, 80, 502" }, "geometry": { "type": "Point", "coordinates": [ -114.083188461871657, 50.979576247592917 ] } },
{ "type": "Feature", "properties": { "route_name": "south_cross", "stop_name": "Heritage", "connection": "3, 20, 37, 39, 79, 80, 81, 410, 502" }, "geometry": { "type": "Point", "coordinates": [ -114.074096850352106, 50.979627815624973 ] } },
{ "type": "Feature", "properties": { "route_name": "south_cross", "stop_name": "Fairmont Drive", "connection": "39, 410" }, "geometry": { "type": "Point", "coordinates": [ -114.059941933481824, 50.979627815624966 ] } },
{ "type": "Feature", "properties": { "route_name": "south_cross", "stop_name": "Deerfoot Meadows", "connection": "43" }, "geometry": { "type": "Point", "coordinates": [ -114.040671588999828, 50.987301437932786 ] } },
{ "type": "Feature", "properties": { "route_name": "south_cross", "stop_name": "Riverbend", "connection": "24, 36, 41, 75" }, "geometry": { "type": "Point", "coordinates": [ -114.015891176930253, 50.975717858749093 ] } },
{ "type": "Feature", "properties": { "route_name": "south_cross", "stop_name": "Quarry Park", "connection": "24, 110" }, "geometry": { "type": "Point", "coordinates": [ -114.012257510737342, 50.963479535303598 ] } },
{ "type": "Feature", "properties": { "route_name": "south_cross", "stop_name": "Douglas Glen Boulevard", "connection": "96, 110" }, "geometry": { "type": "Point", "coordinates": [ -114.007484600840499, 50.957148102649931 ] } },
{ "type": "Feature", "properties": { "route_name": "south_cross", "stop_name": "Douglas Glen", "connection": "24, 92, 96, 103, 117, 133, 150, 151, 176, 409, 302" }, "geometry": { "type": "Point", "coordinates": [ -113.996955904125841, 50.951824341648276 ] } }
]
}
